stop_id,stop_name,stop_lon,stop_lat,stop_full_name
S0003,百万庄东口,116.343994,39.929218,北京市西城区百万庄东口(公交站)
S0006,阜成门,116.354397,39.923516,北京市西城区阜成门(公交站)
S0007,阜成门内,116.358269,39.92276,北京市西城区阜成门内(公交站)
S0008,白塔寺东,116.367065,39.923916,北京市西城区白塔寺东(公交站)
S0010,西安门,116.379333,39.922626,北京市西城区西安门(公交站)
S0016,朝内小街,116.424522,39.924461,北京市东城区朝内小街(公交站)
S0020,东大桥路口东,116.451567,39.922279,北京市朝阳区东大桥路口东(公交站)
S0027,阜外西口,116.340958,39.9231,北京市西城区阜外西口(公交站)
S0029,北京南站,116.377671,39.866619,北京市丰台区北京南站(公交站)
S0030,永定门汽车站,116.383287,39.870497,北京市东城区永定门汽车站(公交站)
S0031,陶然桥北,116.387734,39.873724,北京市西城区陶然桥北(公交站)
S0032,太平街,116.387465,39.879935,北京市西城区太平街(公交站)
S0033,虎坊路,116.385039,39.884414,北京市西城区虎坊路(公交站)
S0034,虎坊桥路口西,116.382225,39.889339,北京市西城区虎坊桥路口西(公交站)
S0035,果子巷,116.378952,39.889259,北京市西城区果子巷(公交站)
S0039,西单路口南,116.37421,39.905825,北京市西城区西单路口南(公交站)
S0040,西单商场,116.373906,39.910868,北京市西城区西单商场(公交站)
S0041,缸瓦市,116.373596,39.919163,北京市西城区缸瓦市(公交站)
S0046,动物园枢纽站,116.340382,39.937018,北京市西城区动物园枢纽站(公交站)
S0047,甘家口东,116.337296,39.922977,北京市西城区甘家口东(公交站)
S0048,西四路口西,116.37145,39.923984,北京市西城区西四路口西(公交站)
S0049,甘石桥,116.373733,39.91566,北京市西城区甘石桥(公交站)
S0051,虎坊桥路口南,116.384731,39.887526,北京市西城区虎坊桥路口南(公交站)
S0052,太平街北口,116.387321,39.882133,北京市西城区太平街北口(公交站)
S0053,南站幸福路,116.383987,39.868408,南站幸福路(公交站)
S0055,北京站西街,116.421658,39.902496,北京站西街(公交站)
S0061,骑河楼,116.406541,39.919132,北京市东城区骑河楼(公交站)
S0062,崇文门西,116.415154,39.900982,北京市东城区崇文门西(公交站)
S0068,美术馆北,116.410789,39.925724,北京市东城区美术馆北(公交站)
S0069,大佛寺,116.409126,39.927773,北京市东城区大佛寺(公交站)
S0070,宽街路口南,116.408989,39.931026,北京市东城区宽街路口南(公交站)
S0089,东直门枢纽站,116.437496,39.94174,北京市东城区东直门枢纽站(公交站)
S0090,东直门内,116.431282,39.941032,北京市东城区东直门内(公交站)
S0091,东内小街,116.424576,39.941006,北京市东城区东内小街(公交站)
S0093,东四十二条,116.417018,39.936185,北京市东城区东四十二条(公交站)
S0098,红桥路口北,116.419106,39.889816,北京市东城区红桥路口北(公交站)
S0099,红桥路口西,116.417046,39.888073,北京市东城区红桥路口西(公交站)
S0100,天坛北门,116.411476,39.888234,北京市东城区天坛北门(公交站)
S0101,金鱼池,116.406302,39.888147,北京市东城区金鱼池(公交站)
S0102,天桥路口东,116.401866,39.887222,北京市东城区天桥路口东(公交站)
S0103,天桥,116.398979,39.884277,北京市东城区天桥(公交站)
S0110,鼓楼,116.396065,39.937965,鼓楼(公交站)
S0112,北海北门,116.39093,39.933464,北京市西城区北海北门(公交站)
S0113,东官房,116.38533,39.933121,北京市西城区东官房(公交站)
S0114,厂桥路口东,116.381094,39.93306,北京市西城区厂桥路口东(公交站)
S0115,平安里路口东,116.374197,39.932652,北京市西城区平安里路口东(公交站)
S0116,平安医院,116.366585,39.932327,北京市西城区平安医院(公交站)
S0118,车公庄西,116.353447,39.932991,北京市西城区车公庄西(公交站)
S0119,三塔寺,116.349083,39.932362,北京市西城区三塔寺(公交站)
S0120,二里沟东口,116.34217,39.932383,北京市西城区二里沟东口(公交站)
S0121,北京展览馆,116.343069,39.936845,北京市西城区北京展览馆(公交站)
S0122,动物园,116.335815,39.937962,北京市西城区动物园(公交站)
S0123,白石桥东,116.329779,39.938672,北京市海淀区白石桥东(公交站)
S0124,车公庄东,116.358475,39.93232,北京市西城区车公庄东(公交站)
S0136,湾子,116.328842,39.889896,北京市西城区湾子(公交站)
S0137,广外甘石桥,116.334648,39.889938,北京市西城区广外甘石桥(公交站)
S0138,达官营,116.338355,39.889913,北京市西城区达官营(公交站)
S0139,广安门内,116.355803,39.889284,广安门内(公交站)
S0140,牛街路口西,116.362488,39.8894,北京市西城区牛街路口西(公交站)
S0141,菜市口西,116.371841,39.889351,北京市西城区菜市口西(公交站)
S0142,西四丁字街,116.376549,39.922522,北京市西城区西四丁字街(公交站)
S0143,东大桥公交场站,116.451865,39.9234,北京市朝阳区东大桥公交场站(公交站)
S0144,南菜园,116.35168,39.877721,北京市西城区南菜园(公交站)
S0145,白纸坊路口西,116.358185,39.877911,北京市西城区白纸坊路口西(公交站)
S0146,南樱桃园路口北,116.363928,39.879401,北京市西城区南樱桃园路口北(公交站)
S0147,牛街南口,116.363728,39.881454,北京市西城区牛街南口(公交站)
S0148,牛街礼拜寺,116.363802,39.884497,北京市西城区牛街礼拜寺(公交站)
S0149,牛街,116.363668,39.888325,北京市西城区牛街(公交站)
S0150,宣武医院,116.363568,39.890803,北京市西城区宣武医院(公交站)
S0151,槐柏树街东口,116.363307,39.895885,北京市西城区槐柏树街东口(公交站)
S0152,长椿街路口北,116.363281,39.900573,北京市西城区长椿街路口北(公交站)
S0153,新文化街西口,116.36322,39.904766,北京市西城区新文化街西口(公交站)
S0154,民族文化宫,116.364464,39.907269,北京市西城区民族文化宫(公交站)
S0155,复兴门内,116.359688,39.907108,北京市西城区复兴门内(公交站)
S0156,南礼士路,116.350226,39.907313,北京市西城区南礼士路(公交站)
S0157,三里河东路南口,116.344136,39.90865,北京市西城区三里河东路南口(公交站)
S0158,月坛南街南站,116.3451,39.912422,北京市西城区月坛南街南站(公交站)
S0159,月坛南街北站,116.345,39.915317,北京市西城区月坛南街北站(公交站)
S0160,月坛北街北站,116.344872,39.919373,北京市西城区月坛北街北站(公交站)
S0161,甘家口西,116.331879,39.92321,北京市海淀区甘家口西(公交站)
S0162,白堆子口东,116.327626,39.923429,北京市海淀区白堆子口东(公交站)
S0163,马神庙,116.319931,39.923782,北京市海淀区马神庙(公交站)
S0164,航天桥东,116.314861,39.923702,北京市海淀区航天桥东(公交站)
S0168,左家庄,116.445621,39.951736,北京市朝阳区左家庄(公交站)
S0169,新源里,116.449135,39.948494,北京市朝阳区新源里(公交站)
S0170,塔园村,116.450363,39.943977,北京市朝阳区塔园村(公交站)
S0171,幸福三村,116.4505,39.939091,北京市朝阳区幸福三村(公交站)
S0172,工人体育场,116.45031,39.93301,北京市朝阳区工人体育场(公交站)
S0181,地安门内,116.39638,39.931411,北京市西城区地安门内(公交站)
S0182,护国寺,116.372896,39.935279,北京市西城区护国寺(公交站)
S0183,新街口南,116.372808,39.938542,北京市西城区新街口南(公交站)
S0186,西直门外,116.35096,39.940239,北京市西城区西直门外(公交站)
S0188,亮果厂,116.405922,39.929523,北京市东城区亮果厂(公交站)
S0197,大北窑南,116.461141,39.907391,北京市朝阳区大北窑南(公交站)
S0203,长虹桥西,116.459271,39.933694,北京市朝阳区长虹桥西(公交站)
S0204,三里屯,116.454527,39.933672,北京市朝阳区三里屯(公交站)
S0205,工人体育馆,116.442879,39.93367,北京市东城区工人体育馆(公交站)
S0206,东四十条桥东,116.438942,39.93367,北京市东城区东四十条桥东(公交站)
S0207,东四十条桥西,116.430969,39.933632,北京市东城区东四十条桥西(公交站)
S0208,东四十条,116.423927,39.933617,北京市东城区东四十条(公交站)
S0209,张自忠路,116.414597,39.933411,北京市东城区张自忠路(公交站)
S0210,宽街路口东,116.410866,39.933456,北京市东城区宽街路口东(公交站)
S0214,安华桥北,116.394562,39.971119,北京市朝阳区安华桥北(公交站)
S0215,安贞西里,116.394272,39.974014,北京市朝阳区安贞西里(公交站)
S0216,地铁北土城站,116.391991,39.976944,北京市朝阳区地铁北土城站(公交站)
S0221,呼家楼南,116.46138,39.917743,北京市朝阳区呼家楼南(公交站)
S0222,白云路,116.343381,39.905712,北京市西城区白云路(公交站)
S0224,木樨地北,116.334839,39.910645,北京市海淀区木樨地北(公交站)
S0225,玉渊潭东门,116.334787,39.91148,北京市西城区玉渊潭东门(公交站)
S0227,二里沟西口,116.332483,39.932457,北京市海淀区二里沟西口(公交站)
S0228,四道口东,116.326889,39.93235,北京市海淀区四道口东(公交站)
S0237,东冉村,116.275495,39.955677,北京市海淀区东冉村(公交站)
S0243,团结湖路北口,116.46701,39.932587,北京市朝阳区团结湖路北口(公交站)
S0245,水碓路口南,116.469592,39.921493,北京市朝阳区水碓路口南(公交站)
S0246,小庄路口北,116.469592,39.917622,北京市朝阳区小庄路口北(公交站)
S0249,北京体育馆,116.42907,39.884048,北京市东城区北京体育馆(公交站)
S0250,北京体育馆西,116.423447,39.883995,北京市东城区北京体育馆西(公交站)
S0251,法华寺,116.420654,39.885094,北京市东城区法华寺(公交站)
S0252,北新桥路口北,116.416756,39.94286,北京市东城区北新桥路口北(公交站)
S0253,雍和宫,116.416649,39.948105,北京市东城区雍和宫(公交站)
S0254,雍和宫桥东,116.418325,39.949197,北京市东城区雍和宫桥东(公交站)
S0255,北小街豁口,116.422897,39.949345,北京市东城区北小街豁口(公交站)
S0256,和平里南口,116.425226,39.952578,北京市东城区和平里南口(公交站)
S0262,和平里东街,116.425017,39.964627,北京市朝阳区和平里东街(公交站)
S0263,和平里路口南,116.425126,39.956901,北京市东城区和平里路口南(公交站)
S0267,东直门,116.437393,39.941036,北京市东城区东直门(公交站)
S0268,春秀路,116.442642,39.941128,北京市东城区春秀路(公交站)
S0269,团结湖,116.468286,39.933802,北京市朝阳区团结湖(公交站)
S0270,甜水园街北口,116.477444,39.933802,北京市朝阳区甜水园街北口(公交站)
S0271,甜水园北里,116.478377,39.930569,北京市朝阳区甜水园北里(公交站)
S0272,金台路口南,116.478043,39.921284,北京市朝阳区金台路口南(公交站)
S0273,红庙路口北,116.478127,39.917969,北京市朝阳区红庙路口北(公交站)
S0274,金台路口北,116.478255,39.924983,北京市朝阳区金台路口北(公交站)
S0276,和平里路口北,116.425152,39.960495,北京市东城区和平里路口北(公交站)
S0277,郝家湾,116.337463,39.932472,北京市西城区郝家湾(公交站)
S0278,地安门东,116.398056,39.933385,北京市东城区地安门东(公交站)
S0279,南锣鼓巷,116.402548,39.933416,北京市东城区南锣鼓巷(公交站)
S0280,外文印刷厂,116.322327,39.93243,北京市海淀区外文印刷厂(公交站)
S0281,老虎庙,116.315608,39.932409,北京市海淀区老虎庙(公交站)
S0284,大北窑东,116.46479,39.908596,北京市朝阳区大北窑东(公交站)
S0285,郎家园,116.468707,39.908138,北京市朝阳区郎家园(公交站)
S0286,八王坟南,116.477829,39.906155,北京市朝阳区八王坟南(公交站)
S0287,光辉桥南,116.477812,39.903911,北京市朝阳区光辉桥南(公交站)
S0288,九龙山,116.477452,39.896055,北京市朝阳区九龙山(公交站)
S0289,九龙山路口东,116.479592,39.893299,北京市朝阳区九龙山路口东(公交站)
S0290,大郊亭桥西,116.486755,39.893093,北京市朝阳区大郊亭桥西(公交站)
S0291,大郊亭桥东,116.492081,39.893284,北京市朝阳区大郊亭桥东(公交站)
S0292,地铁百子湾站,116.497096,39.89332,北京市朝阳区地铁百子湾站(公交站)
S0293,唐家村,116.503366,39.893138,北京市朝阳区唐家村(公交站)
S0294,小海子,116.509094,39.893192,北京市朝阳区小海子(公交站)
S0295,四根旗杆,116.513321,39.893162,北京市朝阳区四根旗杆(公交站)
S0296,方家村,116.51902,39.893112,北京市朝阳区方家村(公交站)
S0297,朝阳半壁店,116.525154,39.893093,北京市朝阳区朝阳半壁店(公交站)
S0298,观音堂北,116.527396,39.888798,北京市朝阳区观音堂北(公交站)
S0299,观音堂,116.527539,39.884588,北京市朝阳区观音堂(公交站)
S0300,古塔公园,116.529036,39.878715,北京市朝阳区古塔公园(公交站)
S0301,王四营,116.530447,39.873429,北京市朝阳区王四营(公交站)
S0302,王四营桥东,116.532999,39.869787,北京市朝阳区王四营桥东(公交站)
S0303,孛罗营村北,116.536064,39.865929,北京市朝阳区孛罗营村北(公交站)
S0304,孛罗营,116.537678,39.862982,北京市朝阳区孛罗营(公交站)
S0305,王四营桥南,116.530872,39.867309,北京市朝阳区王四营桥南(公交站)
S0306,八王坟西,116.474692,39.908056,北京市朝阳区八王坟西(公交站)
S0307,石榴园东,116.418633,39.845933,北京市丰台区石榴园东(公交站)
S0308,石榴园,116.414648,39.846545,北京市丰台区石榴园(公交站)
S0309,石榴园北,116.41465,39.848431,北京市丰台区石榴园北(公交站)
S0310,光彩路北站,116.41451,39.851081,光彩路北站(公交站)
S0311,赵公口桥南,116.414215,39.855289,北京市丰台区赵公口桥南(公交站)
S0312,赵公口桥西,116.409245,39.856858,北京市丰台区赵公口桥西(公交站)
S0313,木樨园桥东,116.404291,39.857298,北京市丰台区木樨园桥东(公交站)
S0314,木樨园桥北,116.400616,39.859805,北京市东城区木樨园桥北(公交站)
S0315,沙子口,116.399422,39.863983,北京市东城区沙子口(公交站)
S0316,永定门内,116.400122,39.873737,北京市东城区永定门内(公交站)
S0317,先农坛,116.400276,39.87764,北京市东城区先农坛(公交站)
S0318,天坛西门,116.399115,39.881949,北京市东城区天坛西门(公交站)
S0319,珠市口南,116.398604,39.888703,北京市东城区珠市口南(公交站)
S0320,大栅栏,116.394583,39.893889,北京市西城区大栅栏(公交站)
S0321,前门,116.39901,39.899185,北京市东城区前门(公交站)
S0322,天安门广场东,116.399588,39.901506,北京市东城区天安门广场东(公交站)
S0323,天安门东,116.401295,39.907647,北京市东城区天安门东(公交站)
S0326,北京站口东,116.428468,39.908551,北京站口东(公交站)
S0327,日坛路,116.441956,39.908588,北京市朝阳区日坛路(公交站)
S0328,永安里路口北,116.450264,39.911804,北京市朝阳区永安里路口北(公交站)
S0329,芳草地南,116.450391,39.914284,北京市朝阳区芳草地南(公交站)
S0330,芳草地,116.450295,39.918403,北京市朝阳区芳草地(公交站)
S0331,永安里路口西,116.446667,39.90842,北京市朝阳区永安里路口西(公交站)
S0332,天安门广场西,116.396004,39.902412,北京市东城区天安门广场西(公交站)
S0333,航天桥西,116.306076,39.923811,北京市海淀区航天桥西(公交站)
S0334,西钓鱼台,116.30175,39.923866,北京市海淀区西钓鱼台(公交站)
S0335,定慧寺东,116.286507,39.924263,北京市海淀区定慧寺东(公交站)
S0342,广安门南,116.350122,39.886536,北京市西城区广安门南(公交站)
S0343,椿树馆街,116.350056,39.88296,北京市西城区椿树馆街(公交站)
S0344,白纸坊桥南,116.349037,39.876637,北京市西城区白纸坊桥南(公交站)
S0345,菜户营桥北,116.348542,39.87145,北京市丰台区菜户营桥北(公交站)
S0346,菜户营桥东,116.353699,39.868801,北京市丰台区菜户营桥东(公交站)
S0351,永定门西,116.394644,39.872418,北京市西城区永定门西(公交站)
S0352,永定门东,116.405347,39.872925,北京市东城区永定门东(公交站)
S0353,天坛南门,116.412244,39.873125,北京市东城区天坛南门(公交站)
S0360,劲松南路西口,116.44635,39.880116,北京市朝阳区劲松南路西口(公交站)
S0361,光明桥,116.445417,39.884375,北京市朝阳区光明桥(公交站)
S0362,广渠门,116.444221,39.893608,北京市东城区广渠门(公交站)
S0363,建国门南,116.436198,39.904631,北京市朝阳区建国门南(公交站)
S0364,北京站东街,116.433529,39.905365,北京站东街(公交站)
S0365,北京站东,116.432048,39.905115,北京站东(公交站)
S0370,大观园西,116.351016,39.87099,北京市西城区大观园西(公交站)
S0371,白纸坊桥北,116.350304,39.879097,北京市西城区白纸坊桥北(公交站)
S0372,莲花池,116.3198,39.888533,北京市丰台区莲花池(公交站)
S0373,牡丹园西,116.367592,39.976566,北京市海淀区牡丹园西(公交站)
S0374,牡丹园,116.370022,39.975352,北京市海淀区牡丹园(公交站)
S0376,马甸桥南,116.380191,39.964527,北京市西城区马甸桥南(公交站)
S0377,德外关厢,116.379601,39.959511,北京市西城区德外关厢(公交站)
S0393,左家庄桥西,116.444883,39.949245,北京市朝阳区左家庄桥西(公交站)
S0395,北太平桥西,116.364961,39.967826,北京市海淀区北太平桥西(公交站)
S0397,北京站前街,116.427185,39.906868,北京市东城区北京站前街(公交站)
S0401,金台路口西,116.474258,39.923108,北京市朝阳区金台路口西(公交站)
S0403,延静里,116.483976,39.92286,北京市朝阳区延静里(公交站)
S0418,东大桥路口南,116.450382,39.921415,北京市朝阳区东大桥路口南(公交站)
S0434,大柳树北站,116.33567,39.953804,北京市海淀区大柳树北站(公交站)
S0439,展览路口北,116.344345,39.925228,北京市西城区展览路口北(公交站)
S0440,白云观,116.342279,39.900634,北京市西城区白云观(公交站)
S0441,白云桥西,116.339492,39.8973,北京市西城区白云桥西(公交站)
S0442,北京西站,116.319323,39.89724,北京市海淀区北京西站(公交站)
S0459,大西洋新城南门,116.468095,39.990768,北京市朝阳区大西洋新城南门(公交站)
S0477,枣林前街路口北,116.358906,39.885252,北京市西城区枣林前街路口北(公交站)
S0478,白广路北口,116.358772,39.888054,北京市西城区白广路北口(公交站)
S0479,六里桥东,116.318207,39.888172,六里桥东(公交站)
S0521,二里庄,116.364852,39.999384,北京市海淀区二里庄(公交站)
S0522,二里庄南口,116.365022,39.995148,北京市海淀区二里庄南口(公交站)
S0523,志新北里,116.369193,39.993003,北京市海淀区志新北里(公交站)
S0524,志新桥北,116.369397,39.988789,北京市海淀区志新桥北(公交站)
S0525,志新桥南,116.369709,39.982734,北京市海淀区志新桥南(公交站)
S0526,牡丹园北,116.36987,39.979188,北京市海淀区牡丹园北(公交站)
S0527,北太平桥南,116.370361,39.965126,北京市海淀区北太平桥南(公交站)
S0528,铁狮子坟,116.370781,39.961671,北京市西城区铁狮子坟(公交站)
S0529,北师大路口南,116.371307,39.956413,北京市西城区北师大路口南(公交站)
S0530,小西天,116.371422,39.953644,北京市海淀区小西天(公交站)
S0531,积水潭桥东,116.37395,39.948498,北京市西城区积水潭桥东(公交站)
S0532,德胜门南站,116.381441,39.947717,北京市西城区德胜门南站(公交站)
S0533,果子市,116.383888,39.946354,北京市西城区果子市(公交站)
S0534,德内甘水桥,116.388992,39.943588,北京市西城区德内甘水桥(公交站)
S0535,铸钟厂,116.39174,39.941589,北京市西城区铸钟厂(公交站)
S0536,农业展览馆,116.461998,39.939484,北京市朝阳区农业展览馆(公交站)
S0537,德胜门,116.379596,39.948264,北京市西城区德胜门(公交站)
S0539,北太平桥北,116.370087,39.971302,北京市海淀区北太平桥北(公交站)
S0540,花市路口南,116.418824,39.896359,北京市东城区花市路口南(公交站)
S0541,磁器口西,116.416252,39.892933,北京市东城区磁器口西(公交站)
S0542,水道子,116.413033,39.892818,北京市东城区水道子(公交站)
S0543,桥湾,116.410118,39.892712,北京市东城区桥湾(公交站)
S0544,东城三里河,116.406433,39.892693,北京市东城区东城三里河(公交站)
S0545,前门西,116.394206,39.90033,北京市西城区前门西(公交站)
S0546,和平门东,116.385365,39.900069,北京市西城区和平门东(公交站)
S0547,宣武门东,116.375356,39.899755,北京市西城区宣武门东(公交站)
S0548,长椿街路口西,116.361667,39.899436,北京市西城区长椿街路口西(公交站)
S0562,长椿街路口东,116.365227,39.899437,北京市西城区长椿街路口东(公交站)
S0571,景辉街东口,116.477852,39.912361,北京市朝阳区景辉街东口(公交站)
S0572,八王坟北,116.477837,39.910671,北京市朝阳区八王坟北(公交站)
S0573,百子湾路口东,116.479479,39.900482,北京市朝阳区百子湾路口东(公交站)
S0574,百子湾桥西,116.484055,39.900597,北京市朝阳区百子湾桥西(公交站)
S0582,西城三里河,116.335833,39.914049,北京市西城区西城三里河(公交站)
S0583,三里河东口,116.342548,39.914006,北京市西城区三里河东口(公交站)
S0584,二七剧场路北口,116.347318,39.913963,北京市西城区二七剧场路北口(公交站)
S0585,儿童医院路口西,116.352201,39.913958,北京市西城区儿童医院路口西(公交站)
S0586,月坛公园,116.352791,39.918464,北京市西城区月坛公园(公交站)
S0587,西四路口北,116.373367,39.92524,北京市西城区西四路口北(公交站)
S0588,大红罗厂西口,116.373238,39.928028,北京市西城区大红罗厂西口(公交站)
S0589,平安里路口南,116.373108,39.930763,北京市西城区平安里路口南(公交站)
S0590,厂桥路口西,116.378155,39.932817,北京市西城区厂桥路口西(公交站)
S0591,国子监,116.416645,39.946137,北京市东城区国子监(公交站)
S0592,和平东桥南,116.424934,39.968395,北京市朝阳区和平东桥南(公交站)
S0593,和平东桥北,116.424759,39.971516,北京市朝阳区和平东桥北(公交站)
S0594,中日医院,116.424718,39.974332,北京市朝阳区中日医院(公交站)
S0595,对外经贸大学,116.424309,39.981915,北京市朝阳区对外经贸大学(公交站)
S0596,惠新东桥南,116.424089,39.98694,北京市朝阳区惠新东桥南(公交站)
S0597,惠新东桥北,116.424136,39.990343,北京市朝阳区惠新东桥北(公交站)
S0598,小营东路,116.426437,39.993724,小营东路(公交站)
S0599,世纪村,116.431473,39.993702,北京市朝阳区世纪村(公交站)
S0600,育慧东路,116.435822,39.993702,北京市朝阳区育慧东路(公交站)
S0601,姜庄湖,116.437205,39.996658,北京市朝阳区姜庄湖(公交站)
S0602,小营公交场站,116.433429,39.997283,北京市朝阳区小营公交场站(公交站)
S0603,南礼士路北口,116.353142,39.921478,北京市西城区南礼士路北口(公交站)
S0617,定安路,116.413963,39.861324,北京市东城区定安路(公交站)
S0618,琉璃井,116.413837,39.863789,北京市东城区琉璃井(公交站)
S0620,正义路,116.404293,39.900651,北京市东城区正义路(公交站)
S0621,沙滩路口南,116.40641,39.922787,北京市东城区沙滩路口南(公交站)
S0633,李村,116.413672,39.867092,北京市东城区李村(公交站)
S0643,东便门,116.429443,39.900665,北京市东城区东便门(公交站)
S0644,台基厂路口西,116.410088,39.900932,北京市东城区台基厂路口西(公交站)
S0645,前门东,116.401787,39.900578,北京市东城区前门东(公交站)
S0646,北京供电局,116.389792,39.900204,北京市西城区北京供电局(公交站)
S0660,德胜门外,116.379618,39.952778,北京市西城区德胜门外(公交站)
S0661,积水潭桥南,116.372196,39.946914,北京市西城区积水潭桥南(公交站)
S0662,新街口北,116.372339,39.94191,北京市西城区新街口北(公交站)
S0672,天宁寺桥西,116.343613,39.89753,北京市西城区天宁寺桥西(公交站)
S0673,莲花小区,116.301806,39.897092,北京市海淀区莲花小区(公交站)
S0674,金家村桥东,116.296866,39.896819,北京市海淀区金家村桥东(公交站)
S0676,宣武门西,116.373555,39.899701,北京市西城区宣武门西(公交站)
S0678,地铁西直门站,116.351931,39.941467,北京市西城区地铁西直门站(公交站)
S0680,皂君庙,116.340942,39.957882,北京市海淀区皂君庙(公交站)
S0683,中国农业科学院,116.322853,39.960819,北京市海淀区中国农业科学院(公交站)
S0687,保福寺桥西,116.330658,39.98571,北京市海淀区保福寺桥西(公交站)
S0688,北京城市学院,116.345595,39.98638,北京市海淀区北京城市学院(公交站)
S0689,成府路口南,116.353378,39.990757,北京市海淀区成府路口南(公交站)
S0690,学院路北口,116.353034,39.997118,北京市海淀区学院路北口(公交站)
S0691,中国农业大学东校区,116.35688,40.001217,北京市海淀区中国农业大学东校区(公交站)
S0692,二里庄北口,116.362708,40.001293,北京市海淀区二里庄北口(公交站)
S0693,明光桥南,116.354891,39.956554,北京市海淀区明光桥南(公交站)
S0694,后库,116.378815,39.927773,北京市西城区后库(公交站)
S0695,北京三十九中学,116.377188,39.92602,北京市西城区北京三十九中学(公交站)
S0696,府右街,116.381821,39.921623,北京市西城区府右街(公交站)
S0697,力学胡同,116.381798,39.913345,北京市西城区力学胡同(公交站)
S0698,六部口,116.383469,39.90543,北京市西城区六部口(公交站)
S0699,和平门内,116.384193,39.90135,北京市西城区和平门内(公交站)
S0700,琉璃厂,116.384562,39.894883,北京市西城区琉璃厂(公交站)
S0701,四路通,116.38681,39.861706,北京市丰台区四路通(公交站)
S0702,洋桥南,116.386788,39.856007,北京市丰台区洋桥南(公交站)
S0703,马家堡东口,116.387024,39.85067,北京市丰台区马家堡东口(公交站)
S0704,西马场北口,116.386636,39.846693,北京市丰台区西马场北口(公交站)
S0705,角门,116.382187,39.845654,北京市丰台区角门(公交站)
S0706,角门南站,116.379922,39.840256,北京市丰台区角门南站(公交站)
S0707,洋桥北,116.386957,39.857843,北京市丰台区洋桥北(公交站)
S0708,北下关,116.348366,39.945034,北京市海淀区北下关(公交站)
S0709,北京交通大学,116.343369,39.946701,北京市海淀区北京交通大学(公交站)
S0710,大柳树南站,116.336918,39.950334,北京市海淀区大柳树南站(公交站)
S0711,皂君庙东站,116.344116,39.958054,北京市海淀区皂君庙东站(公交站)
S0712,明光村西站,116.349805,39.958082,北京市海淀区明光村西站(公交站)
S0713,明光村,116.352192,39.958051,北京市海淀区明光村(公交站)
S0714,明光桥东,116.358528,39.957954,北京市海淀区明光桥东(公交站)
S0715,北京师范大学南门,116.368416,39.958047,北京市海淀区北京师范大学南门(公交站)
S0716,蓟门桥东,116.359449,39.967912,北京市海淀区蓟门桥东(公交站)
S0717,蓟门桥南,116.353181,39.964245,北京市海淀区蓟门桥南(公交站)
S0718,明光桥北,116.353351,39.960855,北京市海淀区明光桥北(公交站)
S0719,崇文门东,116.422157,39.900477,北京市东城区崇文门东(公交站)
S0720,东花市大街东口,116.43793,39.89776,东花市大街东口(公交站)
S0721,铁辘轳把,116.434402,39.897568,北京市东城区铁辘轳把(公交站)
S0722,小市口,116.42952,39.897404,北京市东城区小市口(公交站)
S0723,羊市口,116.420707,39.897166,北京市东城区羊市口(公交站)
S0724,磁器口南,116.419015,39.891936,北京市东城区磁器口南(公交站)
S0725,天坛体育场,116.420807,39.882038,北京市东城区天坛体育场(公交站)
S0726,东侧路,116.42128,39.875698,北京市东城区东侧路(公交站)
S0727,天坛南门东,116.415964,39.873207,北京市东城区天坛南门东(公交站)
S0728,马尾沟,116.351654,39.928194,北京市西城区马尾沟(公交站)
S0729,阜外医院,116.353157,39.924664,北京市西城区阜外医院(公交站)
S0730,北京儿童医院西门,116.352899,39.91306,北京市西城区北京儿童医院西门(公交站)
S0731,南礼士路南口,116.352623,39.909126,北京市西城区南礼士路南口(公交站)
S0732,真武庙,116.352608,39.90448,北京市西城区真武庙(公交站)
S0733,西便门外,116.35125,39.901181,北京市西城区西便门外(公交站)
S0734,天宁寺桥北,116.348312,39.899657,北京市西城区天宁寺桥北(公交站)
S0735,广安门北,116.350113,39.893516,北京市西城区广安门北(公交站)
S0736,白纸坊,116.359175,39.879922,北京市西城区白纸坊(公交站)
S0737,南樱桃园路口南,116.363937,39.876408,北京市西城区南樱桃园路口南(公交站)
S0738,右安门内,116.364063,39.873494,北京市西城区右安门内(公交站)
S0739,右安门,116.36438,39.867756,北京市丰台区右安门(公交站)
S0740,右安门外,116.364575,39.86326,北京市丰台区右安门外(公交站)
S0741,翠林小区,116.364761,39.859184,北京市丰台区翠林小区(公交站)
S0742,南樱桃园路口西,116.362114,39.878052,北京市西城区南樱桃园路口西(公交站)
S0743,天宁寺桥东,116.351502,39.897656,北京市西城区天宁寺桥东(公交站)
S0744,车公庄南街,116.349487,39.928951,车公庄南街(公交站)
S0745,四惠枢纽站,116.49675,39.906649,北京市朝阳区四惠枢纽站(公交站)
S0746,大北窑西,116.459822,39.908694,北京市朝阳区大北窑西(公交站)
S0747,东单路口西,116.416229,39.908279,北京市东城区东单路口西(公交站)
S0748,天安门西,116.389664,39.907246,北京市西城区天安门西(公交站)
S0749,西单路口东,116.377318,39.907062,北京市西城区西单路口东(公交站)
S0750,工会大楼,116.345634,39.907207,北京市西城区工会大楼(公交站)
S0751,木樨地西,116.332878,39.9077,北京市海淀区木樨地西(公交站)
S0752,军事博物馆,116.325424,39.907387,北京市海淀区军事博物馆(公交站)
S0753,公主坟,116.30999,39.910812,北京市海淀区公主坟(公交站)
S0754,翠微路口,116.301147,39.907444,北京市海淀区翠微路口(公交站)
S0755,万寿路口西,116.293434,39.90741,北京市海淀区万寿路口西(公交站)
S0756,东翠路口,116.287636,39.907513,北京市海淀区东翠路口(公交站)
S0757,沙沟路口西,116.281975,39.907409,北京市海淀区沙沟路口西(公交站)
S0758,五棵松桥东,116.278194,39.907405,北京市海淀区五棵松桥东(公交站)
S0759,永定路口东,116.26564,39.907394,北京市海淀区永定路口东(公交站)
S0760,玉泉路口西,116.251732,39.90747,北京市石景山区玉泉路口西(公交站)
S0761,八宝山,116.24221,39.907372,北京市石景山区八宝山(公交站)
S0762,地铁八宝山站,116.237251,39.907444,北京市石景山区地铁八宝山站(公交站)
S0763,老山南路东口,116.23378,39.911751,北京市石景山区老山南路东口(公交站)
S0764,老山公交场站,116.231941,39.916698,北京市石景山区老山公交场站(公交站)
S0765,五棵松桥西,116.273199,39.907391,北京市海淀区五棵松桥西(公交站)
S0768,阜成门北,116.356194,39.92576,北京市西城区阜成门北(公交站)
S0769,西直门南,116.355781,39.936024,北京市西城区西直门南(公交站)
S0770,玉桃园,116.359575,39.944983,北京市海淀区玉桃园(公交站)
S0771,新街口豁口,116.367166,39.947105,北京市西城区新街口豁口(公交站)
S0772,德胜门西,116.376862,39.948788,北京市西城区德胜门西(公交站)
S0776,安华桥北(北行),116.39456,39.971052,北京市朝阳区安华桥北(北行)(公交站)
S0777,健德门东,116.383464,39.976858,北京市朝阳区健德门东(公交站)
S0778,健德门西,116.380139,39.976827,北京市海淀区健德门西(公交站)
S0779,牡丹园东,116.374132,39.976766,北京市海淀区牡丹园东(公交站)
S0780,塔院小区南门,116.359848,39.97657,北京市海淀区塔院小区南门(公交站)
S0781,蓟门桥北,116.354553,39.972195,北京市海淀区蓟门桥北(公交站)
S0782,文慧桥南,116.355612,39.950894,北京市海淀区文慧桥南(公交站)
S0783,索家坟,116.356463,39.947535,北京市海淀区索家坟(公交站)
S0784,车公庄南,116.356163,39.930582,北京市西城区车公庄南(公交站)
S0785,阜成门南,116.356194,39.919659,北京市西城区阜成门南(公交站)
S0786,月坛体育场,116.356323,39.916855,北京市西城区月坛体育场(公交站)
S0787,皇亭子,116.321274,39.904892,北京市海淀区皇亭子(公交站)
S0788,北京世纪坛医院,116.321267,39.899922,北京市海淀区北京世纪坛医院(公交站)
S0789,文慧桥北,116.355469,39.952869,北京市海淀区文慧桥北(公交站)
S0790,蓟门桥,116.349213,39.967739,北京市海淀区蓟门桥(公交站)
S0791,虎坊桥路口东,116.386803,39.889477,北京市西城区虎坊桥路口东(公交站)
S0792,板章路,116.393593,39.890251,北京市西城区板章路(公交站)
S0793,过街楼,116.399582,39.891689,北京市东城区过街楼(公交站)
S0794,榄杆市,116.422577,39.893215,北京市东城区榄杆市(公交站)
S0795,培新街,116.43043,39.893694,北京市东城区培新街(公交站)
S0796,安化楼,116.433731,39.89373,北京市东城区安化楼(公交站)
S0797,广渠门内,116.43782,39.893639,北京市东城区广渠门内(公交站)
S0798,马圈,116.448989,39.893711,北京市东城区马圈(公交站)
S0799,垂杨柳,116.453915,39.893641,北京市朝阳区垂杨柳(公交站)
S0800,双井桥西,116.458221,39.893421,北京市朝阳区双井桥西(公交站)
S0801,双井桥东,116.46533,39.89349,北京市朝阳区双井桥东(公交站)
S0802,九龙花园,116.468987,39.893433,北京市朝阳区九龙花园(公交站)
S0803,九龙山路口西,116.475378,39.893294,北京市朝阳区九龙山路口西(公交站)
S0804,珠市口西,116.395668,39.890739,北京市西城区珠市口西(公交站)
S0805,外交部街,116.426895,39.912762,北京市东城区外交部街(公交站)
S0806,禄米仓,116.426682,39.916145,北京市东城区禄米仓(公交站)
S0807,演乐胡同,116.426341,39.920825,北京市东城区演乐胡同(公交站)
S0808,东四六条,116.426133,39.928759,北京市东城区东四六条(公交站)
S0809,东四九条,116.42576,39.932548,北京市东城区东四九条(公交站)
S0810,海运仓,116.425873,39.937057,北京市东城区海运仓(公交站)
S0811,北京站口北,116.426918,39.909779,北京站口北(公交站)
S0812,北京站,116.429045,39.906441,北京站(公交站)
S0813,展览路口南,116.344681,39.922241,北京市西城区展览路口南(公交站)
S0814,大慧寺,116.330383,39.951946,北京市海淀区大慧寺(公交站)
S0815,魏公村,116.323929,39.952744,北京市海淀区魏公村(公交站)
S0816,四通桥西,116.316523,39.965247,北京市海淀区四通桥西(公交站)
S0817,三义庙,116.31395,39.964605,北京市海淀区三义庙(公交站)
S0818,万泉庄,116.307404,39.967678,北京市海淀区万泉庄(公交站)
S0819,人民大学西门,116.306786,39.971489,北京市海淀区人民大学西门(公交站)
S0820,北京市地震局,116.306007,39.979752,北京市海淀区北京市地震局(公交站)
S0821,海淀桥东,116.309922,39.985516,北京市海淀区海淀桥东(公交站)
S0822,中关村一街,116.321827,39.985356,北京市海淀区中关村一街(公交站)
S0823,中关村西,116.313238,39.985126,北京市海淀区中关村西(公交站)
S0824,四通桥南,116.32168,39.965543,北京市海淀区四通桥南(公交站)
S0825,安定门外,116.40684,39.951515,北京市东城区安定门外(公交站)
S0826,地兴居,116.39967,39.951536,北京市东城区地兴居(公交站)
S0827,六铺炕,116.393659,39.952296,北京市东城区六铺炕(公交站)
S0828,后九条,116.388312,39.95145,北京市西城区后九条(公交站)
S0829,安德路西口,116.381632,39.951359,北京市西城区安德路西口(公交站)
S0830,四道口北,116.325556,39.933872,北京市海淀区四道口北(公交站)
S0831,花园桥东,116.313271,39.932293,北京市海淀区花园桥东(公交站)
S0832,花园桥南,116.309921,39.929245,北京市海淀区花园桥南(公交站)
S0833,航天桥北,116.309913,39.925569,北京市海淀区航天桥北(公交站)
S0834,弘燕公交场站,116.477361,39.86599,北京市朝阳区弘燕公交场站(公交站)
S0835,西大望南路,116.477313,39.862817,西大望南路(公交站)
S0836,西大望南路南口,116.477062,39.860174,北京市朝阳区西大望南路南口(公交站)
S0837,周家庄,116.471962,39.859319,北京市朝阳区周家庄(公交站)
S0838,周家庄西站,116.468294,39.860308,北京市朝阳区周家庄西站(公交站)
S0839,十里河桥东,116.46036,39.865074,北京市朝阳区十里河桥东(公交站)
S0840,十里河桥北,116.460869,39.868576,北京市朝阳区十里河桥北(公交站)
S0841,华威桥南,116.461237,39.870278,北京市朝阳区华威桥南(公交站)
S0842,潘家园桥,116.460864,39.876068,北京市朝阳区潘家园桥(公交站)
S0843,劲松桥南,116.460916,39.880829,北京市朝阳区劲松桥南(公交站)
S0844,劲松桥北,116.460981,39.887197,北京市朝阳区劲松桥北(公交站)
S0845,双井桥南,116.461267,39.889358,北京市朝阳区双井桥南(公交站)
S0846,双井桥北,116.461584,39.896554,北京市朝阳区双井桥北(公交站)
S0847,双花园,116.461784,39.898048,北京市朝阳区双花园(公交站)
S0848,双井桥,116.461113,39.892014,北京市朝阳区双井桥(公交站)
S0849,光明桥东,116.448822,39.884556,北京市朝阳区光明桥东(公交站)
S0850,劲松中街,116.453299,39.884579,北京市朝阳区劲松中街(公交站)
S0851,劲松桥东,116.46405,39.884457,北京市朝阳区劲松桥东(公交站)
S0852,农光东里,116.46776,39.883316,北京市朝阳区农光东里(公交站)
S0853,武圣东里,116.467734,39.87931,北京市朝阳区武圣东里(公交站)
S0854,武圣路,116.467735,39.874115,北京市朝阳区武圣路(公交站)
S0855,松榆里,116.468607,39.871393,北京市朝阳区松榆里(公交站)
S0856,松榆东里南门,116.475014,39.871262,北京市朝阳区松榆东里南门(公交站)
S0857,北京工业大学南门,116.480392,39.87114,北京市朝阳区北京工业大学南门(公交站)
S0858,四方桥西,116.484253,39.871452,北京市朝阳区四方桥西(公交站)
S0859,弘燕桥北,116.487708,39.869436,北京市朝阳区弘燕桥北(公交站)
S0860,小武基桥北,116.486862,39.861134,北京市朝阳区小武基桥北(公交站)
S0861,周家庄中路,116.478912,39.861328,周家庄中路(公交站)
S0862,弘燕桥西,116.483322,39.86776,北京市朝阳区弘燕桥西(公交站)
S0863,双龙小区,116.481914,39.869271,北京市朝阳区双龙小区(公交站)
S0864,武圣路南口,116.467734,39.872166,北京市朝阳区武圣路南口(公交站)
S0865,东安门,116.406708,39.914196,北京市东城区东安门(公交站)
S0866,南河沿,116.406853,39.910799,北京市东城区南河沿(公交站)
S0867,刘家窑桥西,116.418167,39.856899,北京市丰台区刘家窑桥西(公交站)
S0868,刘家窑桥东,116.427086,39.85807,北京市丰台区刘家窑桥东(公交站)
S0869,顺四条,116.428543,39.853794,北京市丰台区顺四条(公交站)
S0870,宋家庄,116.428436,39.847927,北京市丰台区宋家庄(公交站)
S0871,地铁宋家庄站,116.428403,39.844575,北京市丰台区地铁宋家庄站(公交站)
S0872,双庙北,116.427461,39.84076,北京市丰台区双庙北(公交站)
S0873,双庙,116.431496,39.837891,北京市丰台区双庙(公交站)
S0876,亮马桥,116.462006,39.943069,北京市朝阳区亮马桥(公交站)
S0890,马甸桥东,116.382965,39.968304,北京市西城区马甸桥东(公交站)
S1063,甜水园西里,116.480833,39.928186,北京市朝阳区甜水园西里(公交站)
S1064,道家园,116.484653,39.9275,北京市朝阳区道家园(公交站)
S1065,珠江帝景,116.477524,39.891068,北京市朝阳区珠江帝景(公交站)
S1066,平乐园北,116.47728,39.887062,北京市朝阳区平乐园北(公交站)
S1067,北京工业大学北站,116.477391,39.881341,北京市朝阳区北京工业大学北站(公交站)
S1068,北京工业大学,116.477234,39.877968,北京市朝阳区北京工业大学(公交站)
S1069,松榆东里东门,116.477211,39.874268,北京市朝阳区松榆东里东门(公交站)
S1070,北京工业大学南站,116.477364,39.872082,北京市朝阳区北京工业大学南站(公交站)
S1240,百子湾桥东,116.491043,39.900654,北京市朝阳区百子湾桥东(公交站)
S1241,百子湾,116.498642,39.900433,北京市朝阳区百子湾(公交站)
S1242,水南庄,116.501549,39.900818,北京市朝阳区水南庄(公交站)
S1243,水南庄南站,116.502604,39.897713,北京市朝阳区水南庄南站(公交站)
S1244,大郊亭桥南,116.489449,39.891296,北京市朝阳区大郊亭桥南(公交站)
S1245,窑洼湖桥北,116.490074,39.884861,北京市朝阳区窑洼湖桥北(公交站)
S1246,工大桥,116.489939,39.876758,北京市朝阳区工大桥(公交站)
S1247,弘燕桥北(南行),116.487682,39.869479,北京市朝阳区弘燕桥北(南行)(公交站)
S1248,弘燕桥北(北行),116.489115,39.868555,北京市朝阳区弘燕桥北(北行)(公交站)
S1249,厚俸桥南,116.499832,39.868565,北京市朝阳区厚俸桥南(公交站)
S1250,金蝉南路西口,116.501615,39.864141,北京市朝阳区金蝉南路西口(公交站)
S1251,厚金路南口,116.505295,39.861519,北京市朝阳区厚金路南口(公交站)
S1252,金蝉南里,116.501099,39.861012,北京市朝阳区金蝉南里(公交站)
S1253,金蝉西路,116.500152,39.865087,金蝉西路(公交站)
S1254,紫南家园,116.499219,39.875178,北京市朝阳区紫南家园(公交站)
S1255,世纪东方嘉园,116.494324,39.875988,北京市朝阳区世纪东方嘉园(公交站)
S1256,六里屯,116.474562,39.931085,北京市朝阳区六里屯(公交站)
S1257,朝阳体育馆,116.470634,39.930308,北京市朝阳区朝阳体育馆(公交站)
S1264,小马厂,116.335499,39.897088,北京市西城区小马厂(公交站)
S1370,茂林居,116.330408,39.910924,北京市海淀区茂林居(公交站)
S1371,玉渊潭南门,116.319223,39.911102,北京市海淀区玉渊潭南门(公交站)
S1372,柳林馆,116.314941,39.911182,北京市海淀区柳林馆(公交站)
S1373,普惠南里,116.308147,39.912869,北京市海淀区普惠南里(公交站)
S1374,翠微东里,116.300977,39.91299,北京市海淀区翠微东里(公交站)
S1375,翠微南里,116.296768,39.912952,北京市海淀区翠微南里(公交站)
S1376,万寿路口北,116.29509,39.909672,北京市海淀区万寿路口北(公交站)
S1377,公主坟西,116.307549,39.907974,北京市海淀区公主坟西(公交站)
S1423,青塔桥北,116.264565,39.898438,北京市海淀区青塔桥北(公交站)
S1424,永定路口南,116.264641,39.905586,北京市海淀区永定路口南(公交站)
S1425,永定路口北,116.264687,39.909641,北京市海淀区永定路口北(公交站)
S1426,铁家坟南,116.264683,39.916832,北京市海淀区铁家坟南(公交站)
S1427,阜永路口南,116.264696,39.922665,北京市海淀区阜永路口南(公交站)
S1431,黄庄,113.342717,23.234622,广东省广州市白云区黄庄(公交站)
S1432,黄庄东站,116.283417,39.950062,北京市海淀区黄庄东站(公交站)
S1447,翠微西里,116.295502,39.918159,北京市海淀区翠微西里(公交站)
S1448,八里庄桥,116.297461,39.92326,北京市海淀区八里庄桥(公交站)
S1453,八宝庄,116.296394,39.921299,北京市海淀区八宝庄(公交站)
S1470,远大路东口,116.289427,39.957387,北京市海淀区远大路东口(公交站)
S1471,麦钟桥,116.294822,39.952943,北京市海淀区麦钟桥(公交站)
S1472,正福寺,116.28819,39.944132,北京市海淀区正福寺(公交站)
S1473,彰化村,116.290868,39.942222,北京市海淀区彰化村(公交站)
S1474,彰化路东口,116.29454,39.94223,北京市海淀区彰化路东口(公交站)
S1475,五路,116.296967,39.938381,北京市海淀区五路(公交站)
S1476,慈寿寺桥,116.297234,39.932833,北京市海淀区慈寿寺桥(公交站)
S1477,翠微中里,116.29509,39.915081,北京市海淀区翠微中里(公交站)
S1478,善家坟,116.296471,39.942552,北京市海淀区善家坟(公交站)
S1479,车道沟桥,116.295877,39.947014,北京市海淀区车道沟桥(公交站)
S1480,远大路,116.281858,39.956984,北京市海淀区远大路(公交站)
S1593,呼家楼东,116.463342,39.918789,北京市朝阳区呼家楼东(公交站)
S1744,天桥商场,116.396523,39.880859,北京市西城区天桥商场(公交站)
S1745,福长街,116.395356,39.882982,北京市西城区福长街(公交站)
S1746,福长街北口,116.395187,39.885696,北京市西城区福长街北口(公交站)
S1747,光明楼,116.44049,39.883594,北京市东城区光明楼(公交站)
S1748,南磨房,116.46946,39.884441,北京市朝阳区南磨房(公交站)
S1749,平乐园,116.474953,39.884331,北京市朝阳区平乐园(公交站)
S1750,高碑店南站,116.527444,39.899193,北京市朝阳区高碑店南站(公交站)
S1751,文化新大街,116.539102,39.900547,文化新大街(公交站)
S1752,小郊亭公交场站,116.544484,39.900417,北京市朝阳区小郊亭公交场站(公交站)
S1862,永定门东街,116.40849,39.873012,北京市东城区永定门东街(公交站)
S1863,广和东街,116.450881,39.88352,广和东街(公交站)
S1864,劲松南路,116.451606,39.881662,北京市朝阳区劲松南路(公交站)
S1865,华威路北口,116.456111,39.880573,北京市朝阳区华威路北口(公交站)
S1866,东架松,116.456059,39.878212,北京市朝阳区东架松(公交站)
S1867,华威路南口,116.455959,39.872826,北京市朝阳区华威路南口(公交站)
S1868,华威西里,116.454002,39.876211,北京市朝阳区华威西里(公交站)
S1869,潘家园路西口,116.447669,39.87625,北京市朝阳区潘家园路西口(公交站)
S2008,辟才胡同东口,116.371884,39.914492,北京市西城区辟才胡同东口(公交站)
S2009,二龙路北口,116.365547,39.914141,北京市西城区二龙路北口(公交站)
S2010,辟才胡同,116.363144,39.912685,北京市西城区辟才胡同(公交站)
S2011,太平桥,116.363299,39.910065,北京市西城区太平桥(公交站)
S2012,六里桥东公交场站,116.315872,39.887769,北京市丰台区六里桥东公交场站(公交站)
S2013,辟才胡同西口,116.362549,39.914082,北京市西城区辟才胡同西口(公交站)
S2014,厂桥路口南,116.379753,39.930877,北京市西城区厂桥路口南(公交站)
S2091,酒仙桥中心小学,116.492921,39.964423,北京市朝阳区酒仙桥中心小学(公交站)
S2093,酒仙桥,116.489929,39.968208,北京市朝阳区酒仙桥(公交站)
S2110,酒仙桥商场,116.493954,39.961871,北京市朝阳区酒仙桥商场(公交站)
S2111,东风北桥东,116.488968,39.958622,北京市朝阳区东风北桥东(公交站)
S2114,安家楼,116.473343,39.952934,北京市朝阳区安家楼(公交站)
S2115,燕莎桥东,116.465216,39.950422,北京市朝阳区燕莎桥东(公交站)
S2116,燕莎桥南,116.462023,39.946693,北京市朝阳区燕莎桥南(公交站)
S2130,望京医院,116.473481,39.983299,北京市朝阳区望京医院(公交站)
S2131,花家地北里,116.469826,39.985655,北京市朝阳区花家地北里(公交站)
S2145,光华桥南,116.462151,39.912743,北京市朝阳区光华桥南(公交站)
S2158,将台路口西,116.4888,39.973133,北京市朝阳区将台路口西(公交站)
S2159,高家园,116.485113,39.975569,北京市朝阳区高家园(公交站)
S2160,丽都饭店,116.479797,39.979084,北京市朝阳区丽都饭店(公交站)
S2314,金蝉西路南口,116.500168,39.862419,北京市朝阳区金蝉西路南口(公交站)
S2466,北太平路口南,116.26464,39.90145,北京市海淀区北太平路口南(公交站)
S2467,青塔蔚园,116.264587,39.893227,北京市丰台区青塔蔚园(公交站)
S2468,青塔西路北站,116.264648,39.885395,北京市丰台区青塔西路北站(公交站)
S2469,青塔西路,116.264635,39.882791,北京市丰台区青塔西路(公交站)
S2769,煤市街南口,116.39489,39.891727,北京市西城区煤市街南口(公交站)
S2828,岳各庄北路,116.267014,39.883615,岳各庄北路(公交站)
S2829,岳各庄北桥北,116.275055,39.882622,北京市丰台区岳各庄北桥北(公交站)
S2830,梅市口路东口,116.272465,39.880807,北京市丰台区梅市口路东口(公交站)
S2831,梅市口路,116.268349,39.881054,北京市丰台区梅市口路(公交站)
S2832,青塔西路北站(北行),116.264648,39.88533,北京市丰台区青塔西路北站(北行)(公交站)
S2833,铁家坟北,116.264687,39.918507,北京市海淀区铁家坟北(公交站)
S2834,花家地北里西站,116.466759,39.987572,北京市朝阳区花家地北里西站(公交站)
S2835,平安里路口西,116.371964,39.932678,北京市西城区平安里路口西(公交站)
S2912,北土城公交场站,116.397882,39.977413,北京市朝阳区北土城公交场站(公交站)
S3341,景山后街,116.395048,39.928394,北京市西城区景山后街(公交站)
S3342,西板桥,116.393669,39.926117,北京市西城区西板桥(公交站)
S3392,菜户营桥,116.34729,39.869217,北京市丰台区菜户营桥(公交站)
S3395,裕民中路,116.388155,39.973212,北京市朝阳区裕民中路(公交站)
S3396,裕民中路南口,116.38832,39.969436,北京市西城区裕民中路南口(公交站)
S3397,北海南站,116.391113,39.920071,北京市西城区北海南站(公交站)
S3398,西华门,116.391484,39.91372,北京市西城区西华门(公交站)
S3399,南长街,116.391784,39.910035,北京市西城区南长街(公交站)
S3400,安华桥西(东行),116.390777,39.968229,北京市朝阳区安华桥西(东行)(公交站)
S3401,安华桥西(西行),116.389718,39.968598,北京市西城区安华桥西(西行)(公交站)
S3424,北京体育馆东,116.432079,39.884197,北京市东城区北京体育馆东(公交站)
S3555,京体游泳馆,116.473455,39.871267,北京市朝阳区京体游泳馆(公交站)
S3556,金蝉北里,116.50531,39.869949,北京市朝阳区金蝉北里(公交站)
S3557,厚金路,116.505169,39.865582,厚金路(公交站)
S3558,垡头桥西,116.508859,39.870395,北京市朝阳区垡头桥西(公交站)
S4400,白桥大街,116.439266,39.896332,北京市东城区白桥大街(公交站)
S4401,幸福大街北口,116.428676,39.891675,北京市东城区幸福大街北口(公交站)
S4402,幸福大街,116.430968,39.888976,北京市东城区幸福大街(公交站)
S4403,龙潭路,116.436332,39.881328,北京市东城区龙潭路(公交站)
S4404,龙潭湖,116.438164,39.881393,北京市东城区龙潭湖(公交站)
S4975,和平门西,116.379837,39.899899,北京市西城区和平门西(公交站)
